{"itinerary": [{"match_id": "19", "kickoff_utc": "2026-06-17 01:00:00+00:00", "team_a": "Argentina", "team_b": "Algeria", "city": "kansas-city", "stage": "group-stage", "lat": 39.04874353, "lon": -94.48187882, "travel_distance": 844.59, "travel_duration": 9.96}, {"match_id": "43", "kickoff_utc": "2026-06-22 17:00:00+00:00", "team_a": "Argentina", "team_b": "Austria", "city": "dallas", "stage": "group-stage", "lat": 32.73024043, "lon": -97.08025844, "travel_distance": 835.5, "travel_duration": 9.77}, {"match_id": "70", "kickoff_utc": "2026-06-28 02:00:00+00:00", "team_a": "Jordan", "team_b": "Argentina", "city": "dallas", "stage": "group-stage", "lat": 32.73024043, "lon": -97.08025844, "travel_distance": 0.0, "travel_duration": 0.0}, {"match_id": "86", "kickoff_utc": "2026-07-03 22:00:00+00:00", "team_a": "Group J winners", "team_b": "Group H runners-up", "city": "miami", "stage": "round-of-32", "lat": 25.9581328, "lon": -80.23888966, "travel_distance": 2116.8, "travel_duration": 24.14}, {"match_id": "95", "kickoff_utc": "2026-07-07 16:00:00+00:00", "team_a": "Winner Match 86", "team_b": "Winner Match 88", "city": "atlanta", "stage": "round-of-16", "lat": 33.75748929, "lon": -84.40044532, "travel_distance": 1044.79, "travel_duration": 11.83}, {"match_id": "100", "kickoff_utc": "2026-07-12 01:00:00+00:00", "team_a": "Winner Match 95", "team_b": "Winner Match 96", "city": "kansas-city", "stage": "quarter-finals", "lat": 39.04874353, "lon": -94.48187882, "travel_distance": 1278.01, "travel_duration": 14.85}, {"match_id": "102", "kickoff_utc": "2026-07-15 19:00:00+00:00", "team_a": "Winner Match 99", "team_b": "Winner Match 100", "city": "atlanta", "stage": "semi-finals", "lat": 33.75748929, "lon": -84.40044532, "travel_distance": 1275.5, "travel_duration": 14.77}, {"match_id": "104", "kickoff_utc": "2026-07-19 19:00:00+00:00", "team_a": "Winner Match 101", "team_b": "Winner Match 102", "city": "new-york", "stage": "final", "lat": 40.82236901, "lon": -74.07995734, "travel_distance": 1386.88, "travel_duration": 16.86}], "route_detail": [], "distance": 8.78, "duration": 8.78}